,City,Lat,Lng,Max_Temp,Humidity,Cloudiness,Wind_Speed,Country,Date
0,Avarua,-21.2078,-159.775,78.8,94,40,4.61,CK,1612779975
1,Lebu,-37.6167,-73.65,57.58,95,30,4.83,CL,1612779975
2,Bluff,-46.6,168.3333,61.32,76,100,10.67,NZ,1612779975
3,Eilat,29.5581,34.9482,69.8,49,0,6.91,IL,1612779975
4,Pacifica,37.6138,-122.4869,48.99,93,90,4.36,US,1612779975
5,Āgaro,7.85,36.65,86.58,24,78,2.98,ET,1612779784
6,Busselton,-33.65,115.3333,66.0,88,56,1.99,AU,1612779976
7,Kawalu,-7.3817,108.2082,76.28,89,99,1.72,ID,1612779976
8,George Town,5.4112,100.3354,87.8,66,20,9.22,MY,1612779729
9,Rikitea,-23.1203,-134.9692,77.4,67,8,7.83,PF,1612779976
10,Sitka,57.0531,-135.33,28.4,74,90,13.8,US,1612779976
11,Chapleau,47.8405,-83.4034,-16.33,86,2,3.53,CA,1612779977
12,Butaritari,3.0707,172.7902,81.77,81,87,17.38,KI,1612779977
13,Jamestown,42.097,-79.2353,8.6,92,90,3.44,US,1612779977
14,Geraldton,-28.7667,114.6,73.4,68,75,14.97,AU,1612779977
15,Broome,42.2506,-75.833,3.2,66,1,6.91,US,1612779977
16,Ushuaia,-54.8,-68.3,53.6,71,75,8.05,AR,1612779978
17,Codrington,-38.2667,141.9667,57.99,77,93,12.84,AU,1612779978
18,Albany,42.6001,-73.9662,14.0,58,4,1.01,US,1612779967
19,Crăciunelu de Jos,46.1833,23.8333,53.6,93,90,5.75,RO,1612779978
20,Norman Wells,65.282,-126.8329,-43.6,66,1,2.3,CA,1612779978
21,Saint-Augustin,51.226,-58.6502,15.78,94,100,10.54,CA,1612779979
22,Port Moresby,-9.4431,147.1797,80.6,83,40,3.44,PG,1612779692
23,Dukat,62.55,155.55,-0.96,91,87,4.65,RU,1612779979
24,Chokurdakh,70.6333,147.9167,-12.98,86,0,7.7,RU,1612779980
25,Mataura,-46.1927,168.8643,64.33,65,100,3.94,NZ,1612779980
26,Alta Floresta,-9.8756,-56.0861,69.37,99,100,2.06,BR,1612779980
27,Smithers,54.7804,-127.1743,-5.8,84,90,0.36,CA,1612779980
28,Moree,-29.4667,149.85,82.4,34,59,12.66,AU,1612779980
29,Dingle,10.9995,122.6711,72.86,92,100,8.37,PH,1612779981
30,Luwuk,-0.9516,122.7875,80.55,76,97,1.77,ID,1612779981
31,Oranjemund,-28.55,16.4333,70.56,59,0,17.81,NA,1612779981
32,Bruneck,46.7958,11.9364,35.6,60,75,2.91,IT,1612779981
33,Ostrovnoy,68.0531,39.5131,0.64,89,96,1.54,RU,1612779981
34,Bredasdorp,-34.5322,20.0403,82.4,39,8,3.44,ZA,1612779981
35,Mar del Plata,-38.0023,-57.5575,62.01,67,40,13.8,AR,1612779695
36,Atuona,-9.8,-139.0333,79.47,76,27,20.76,PF,1612779982
37,Beloha,-25.1667,45.05,94.51,41,44,4.83,MG,1612779982
38,Lompoc,34.6391,-120.4579,50.0,93,90,1.77,US,1612779983
39,Poconé,-16.2567,-56.6228,69.13,71,37,1.74,BR,1612779983
40,Holme,56.1138,10.1725,28.4,80,75,16.11,DK,1612779983
41,Guaymas,27.9333,-110.9,57.09,49,0,0.16,MX,1612779983
42,Esperance,-33.8667,121.9,86.0,32,0,20.71,AU,1612779984
43,Saskylakh,71.9167,114.0833,-33.65,82,41,8.72,RU,1612779984
44,Cherskiy,68.75,161.3,3.18,68,0,3.8,RU,1612779984
45,Port Elizabeth,-33.918,25.5701,75.2,60,20,23.02,ZA,1612779984
46,Shimoda,34.6667,138.95,47.39,52,0,22.48,JP,1612779985
47,Rognan,67.0953,15.3878,26.01,93,65,5.95,NO,1612779985
48,Xining,36.6167,101.7667,39.36,43,34,3.11,CN,1612779985
49,Puerto Ayora,-0.7393,-90.3518,75.99,97,97,5.17,EC,1612779985
50,Palmer,42.1584,-72.3287,16.0,62,1,8.05,US,1612779986
51,Nishihara,26.1842,127.7558,64.4,42,40,12.66,JP,1612779986
52,Tommot,58.9564,126.2925,-15.05,84,1,0.69,RU,1612779986
53,Qaqortoq,60.7167,-46.0333,37.4,30,40,42.57,GL,1612779986
54,Hobart,-42.8794,147.3294,55.99,62,75,11.5,AU,1612779938
55,Koumac,-20.5667,164.2833,79.0,71,2,2.35,NC,1612779987
56,São João da Barra,-21.6403,-41.0511,69.8,100,90,5.88,BR,1612779987
57,New Norfolk,-42.7826,147.0587,55.99,54,17,3.0,AU,1612779987
58,Hermanus,-34.4187,19.2345,80.01,56,16,5.82,ZA,1612779987
59,Yellowknife,62.456,-114.3525,-34.01,67,1,13.8,CA,1612779988
60,Arica,-18.475,-70.3042,68.0,68,0,3.44,CL,1612779838
61,Imeni Poliny Osipenko,52.4201,136.4853,7.63,92,100,2.21,RU,1612779989
62,Hithadhoo,-0.6,73.0833,82.76,75,85,10.83,MV,1612779989
63,Avera,33.194,-82.5271,36.0,91,1,4.45,US,1612779989
64,Rocha,-34.4833,-54.3333,64.04,91,92,2.46,UY,1612779989
65,Port Alfred,-33.5906,26.891,75.99,74,69,5.99,ZA,1612779990
66,Puerto Cabezas,14.0351,-83.3888,75.4,88,24,6.42,NI,1612779990
67,Laguna,38.421,-121.4238,46.0,87,1,3.44,US,1612779990
68,Rovinj,45.08,13.64,53.6,58,40,18.41,HR,1612779990
69,Garoowe,8.4054,48.4845,88.75,26,85,15.95,SO,1612779990
70,Rome,43.2128,-75.4557,12.2,79,90,8.05,US,1612779844
71,Bilibino,68.0546,166.4372,-6.05,73,0,6.29,RU,1612779991
72,Ribeira Grande,38.5167,-28.7,60.8,82,75,25.32,PT,1612779991
73,Dunedin,-45.8742,170.5036,61.0,86,100,7.0,NZ,1612779991
74,Altamont,42.2068,-121.7372,33.01,63,1,1.95,US,1612779992
75,Kurayoshi,35.4333,133.8167,39.2,87,75,28.77,JP,1612779992
76,Arraial do Cabo,-22.9661,-42.0278,71.6,94,90,2.3,BR,1612779992
77,Fengcheng,40.4536,124.0717,19.17,82,0,5.08,CN,1612779992
78,Ponta do Sol,32.6667,-17.1,66.2,68,20,2.3,PT,1612779992
79,Korla,41.7597,86.1469,44.91,49,2,3.15,CN,1612779992
80,Lima,-12.0432,-77.0282,73.0,94,98,4.61,PE,1612779859
81,Saint Anthony,45.0205,-93.218,-5.8,71,75,9.22,US,1612779993
82,Urucará,-2.5364,-57.76,72.79,97,100,1.5,BR,1612779993
83,Shām Churāsi,31.4997,75.7494,72.0,49,9,7.92,IN,1612779993
84,Dikson,73.5069,80.5464,-29.45,85,90,18.77,RU,1612779993
85,Antalya Province,36.7741,30.7178,66.0,82,75,4.61,TR,1612779994
86,Tura,25.5198,90.2201,76.84,26,0,6.35,IN,1612779994
87,Kaitangata,-46.2817,169.8464,64.0,86,100,4.0,NZ,1612779994
88,Punta Arenas,-53.15,-70.9167,55.4,54,90,4.61,CL,1612779726
89,Russell,32.3502,-85.1999,37.4,93,1,4.32,US,1612779994
90,Akşehir,38.3575,31.4164,54.61,58,100,8.14,TR,1612779995
91,Iqaluit,63.7506,-68.5145,32.0,64,75,11.5,CA,1612779995
92,Kapaa,22.0752,-159.319,62.6,82,40,6.91,US,1612779995
93,Itumbiara,-18.4192,-49.2153,69.42,80,0,1.86,BR,1612779995
94,Talnakh,69.4865,88.3972,-4.34,90,87,7.81,RU,1612779995
95,Ouargaye,11.5033,0.0572,91.87,11,24,12.82,BF,1612779996
96,Ranong,9.9658,98.6348,91.4,55,20,5.75,TH,1612779996
97,Skibotn,69.3913,20.2679,26.6,74,75,3.44,NO,1612779996
98,Carnarvon,-24.8667,113.6333,84.2,100,40,12.66,AU,1612779996
99,Shubarshi,48.5872,57.1869,3.58,90,96,17.16,KZ,1612779997
100,Castro,-24.7911,-50.0119,53.49,96,10,3.62,BR,1612779997
101,Santiago del Estero,-27.7951,-64.2615,73.17,41,70,3.11,AR,1612779997
102,Port Augusta,-32.5,137.7667,78.01,64,0,16.11,AU,1612779997
103,Novy Urengoy,66.0833,76.6333,-10.82,87,55,6.29,RU,1612779851
104,Kuusamo,65.9667,29.1833,8.6,85,76,11.5,FI,1612779998
105,Torbay,47.6666,-52.7314,30.99,80,90,14.97,CA,1612779998
106,Camaçari,-12.6975,-38.3242,82.4,74,75,3.44,BR,1612779935
107,Ossora,59.2353,163.0719,28.02,98,100,29.12,RU,1612779998
108,Port-Gentil,-0.7193,8.7815,86.0,74,40,8.05,GA,1612779998
109,Cidreira,-30.1811,-50.2056,69.82,73,0,3.98,BR,1612779998
110,Klaksvík,62.2266,-6.589,35.6,55,40,20.71,FO,1612779999
111,Seoul,37.5683,126.9778,30.2,34,0,11.5,KR,1612779806
112,Kāliyāganj,25.6333,88.3167,81.48,22,0,10.33,IN,1612779999
113,Barrow,71.2906,-156.7887,-31.0,85,1,10.36,US,1612779999
114,Boa Esperança,-21.09,-45.5658,63.46,86,99,4.61,BR,1612779999
115,Saint-Philippe,-21.3585,55.7679,89.6,51,75,12.66,RE,1612780000
116,Cabo San Lucas,22.8909,-109.9124,60.01,69,84,3.0,MX,1612779866
117,Pedasí,7.5333,-80.0333,77.34,79,93,15.1,PA,1612780000
118,Faanui,-16.4833,-151.75,81.41,75,0,14.94,PF,1612780000
119,Ketchikan,55.3422,-131.6461,28.4,63,90,4.52,US,1612780001
120,Visnes,59.3556,5.2242,26.01,46,0,11.5,NO,1612780001
121,Vila Franca do Campo,37.7167,-25.4333,59.0,82,40,27.63,PT,1612780001
122,Rodrigues Alves,-7.738,-72.6509,72.18,97,88,1.9,BR,1612780001
123,Guasdualito,7.2424,-70.7324,76.15,69,100,1.57,VE,1612780001
124,Hakui,36.8833,136.7833,33.01,93,75,8.05,JP,1612780002
125,Longyearbyen,78.2186,15.6401,14.0,57,75,16.11,SJ,1612780002
126,East London,-33.0153,27.9116,73.4,60,20,18.41,ZA,1612780002
127,Tuktoyaktuk,69.4541,-133.0374,-27.04,86,100,8.84,CA,1612780002
128,Jiayuguan City,39.8167,98.3,37.29,61,67,5.57,CN,1612780003
129,Inhambane,-23.865,35.3833,89.6,58,40,11.5,MZ,1612780003
130,Meadow Lake,34.8014,-106.5436,36.0,27,1,3.44,US,1612780003
131,Biak,-0.9131,122.8766,79.41,78,91,1.83,ID,1612780003
132,Bubaque,11.2833,-15.8333,75.45,44,32,14.81,GW,1612780003
133,Tiksi,71.6872,128.8694,-26.07,86,97,8.48,RU,1612780003
134,Byron Bay,-28.65,153.6167,75.2,69,75,16.11,AU,1612780004
135,Piaçabuçu,-10.4056,-36.4344,79.97,73,100,11.97,BR,1612780004
136,Bengkulu,-3.8004,102.2655,84.67,71,88,9.28,ID,1612780004
137,Hirara,24.8,125.2833,68.0,68,75,17.27,JP,1612780004
138,Chadiza,-14.0678,32.4392,76.28,80,100,6.93,ZM,1612780004
139,Shelburne,44.0787,-80.2041,10.4,79,90,8.05,CA,1612780005
140,Teregova,45.15,22.2833,43.92,72,100,12.8,RO,1612780005
141,Yulara,-25.2406,130.9889,96.8,16,5,11.5,AU,1612780005
142,Bethanien,-26.502,17.1583,89.35,19,0,7.7,NA,1612780005
143,Oudtshoorn,-33.5907,22.2014,73.4,60,20,10.36,ZA,1612780005
144,Ringebu,61.5167,10.1667,9.37,82,5,4.29,NO,1612780006
145,Kandrian,-6.2167,149.55,80.28,77,100,9.1,PG,1612780006
146,Vaini,-21.2,-175.2,75.2,94,90,16.11,TO,1612780006
147,Leningradskiy,69.3833,178.4167,-18.96,86,25,10.27,RU,1612780006
148,Port Hedland,-20.3167,118.5667,84.2,61,0,17.27,AU,1612780007
149,Bullhead City,35.1478,-114.5683,48.2,71,1,4.25,US,1612780007
150,Øksfjord,70.2396,22.3479,26.01,80,40,4.61,NO,1612780007
151,Uíge,-7.6087,15.0613,77.0,78,75,6.91,AO,1612780007
152,Margate,51.3813,1.3862,32.0,77,100,5.01,GB,1612780007
153,Ubari,26.5921,12.7805,68.2,24,100,8.9,LY,1612780008
154,Oak Harbor,48.2932,-122.6432,42.8,52,90,6.91,US,1612780008
155,Kontagora,10.3999,5.4695,91.62,11,8,6.98,NG,1612780008
156,Noumea,-22.2763,166.4572,80.01,94,0,1.61,NC,1612779897
157,Sioux Lookout,50.1001,-91.917,-27.4,68,1,8.05,CA,1612780008
158,Cayenne,4.9333,-52.3333,78.8,89,90,6.91,GF,1612780009
159,Ancud,-41.8697,-73.8203,53.01,100,0,4.61,CL,1612780009
160,Thomaston,32.8882,-84.3266,35.01,93,1,3.09,US,1612780009
161,Harrai,22.6167,79.2167,79.52,15,0,5.79,IN,1612780009
162,Kysyl-Syr,63.8986,122.7617,-24.52,85,4,5.53,RU,1612780010
163,Kruisfontein,-34.0033,24.7314,80.01,50,67,10.0,ZA,1612780010
164,Chui,-33.6971,-53.4616,64.92,88,41,2.48,UY,1612780010
165,Methóni,36.8197,21.7049,66.0,72,75,14.97,GR,1612780010
166,Pecos,31.4229,-103.4932,50.0,20,1,10.36,US,1612780010
167,Hilo,19.7297,-155.09,69.8,73,20,5.75,US,1612779937
168,Severo-Kuril'sk,50.6789,156.125,21.87,93,97,11.45,RU,1612780011
169,Talara,-4.5772,-81.2719,75.33,72,100,15.79,PE,1612780011
170,Airai,-8.9266,125.4092,63.57,100,98,2.42,TL,1612780012
171,Shubarkuduk,49.1447,56.4872,2.53,90,97,19.08,KZ,1612780012
172,Bay Roberts,47.5999,-53.2648,28.99,86,90,5.75,CA,1612780012
173,Sisimiut,66.9395,-53.6735,18.63,80,0,15.32,GL,1612780013
174,Elizabeth City,36.2946,-76.2511,30.99,99,72,10.16,US,1612780013
175,Thompson,55.7435,-97.8558,-25.6,62,90,12.66,CA,1612779987
176,Broken Hill,-31.95,141.4333,77.0,22,0,10.36,AU,1612780013
177,Pudozh,61.8099,36.5345,8.67,94,97,8.5,RU,1612780013
178,Eureka,40.8021,-124.1637,43.0,94,87,1.81,US,1612779798
179,Sibolga,1.7427,98.7792,84.81,67,87,3.22,ID,1612780014
180,Maningrida,-12.0667,134.2667,79.81,85,96,8.86,AU,1612780014
181,Sangar,63.9242,127.4739,-23.69,82,50,4.14,RU,1612780014
182,Panguna,-6.3164,155.4848,71.19,97,100,1.05,PG,1612780014
183,Pontalina,-17.525,-49.4472,67.55,92,32,2.51,BR,1612780014
184,Bambous Virieux,-20.3428,57.7575,86.0,62,40,9.22,MU,1612780015
185,Nome,64.5011,-165.4064,-5.01,71,1,5.19,US,1612779967
186,Birao,10.2849,22.7882,85.77,13,7,12.66,CF,1612780015
187,Manokwari,-0.8667,134.0833,81.09,80,83,4.76,ID,1612780015
188,Tuatapere,-46.1333,167.6833,61.61,79,100,4.94,NZ,1612780015
189,Coahuayana Viejo,18.7333,-103.6833,67.84,84,64,4.63,MX,1612780016
190,Provideniya,64.3833,-173.3,-1.77,85,100,21.52,RU,1612780016
191,São Félix do Xingu,-6.6447,-51.995,72.03,96,100,1.52,BR,1612779971
192,Khatanga,71.9667,102.5,-24.12,81,11,12.55,RU,1612780016
193,Rokytne,51.2796,27.214,15.94,95,100,18.32,UA,1612780017
194,The Valley,18.217,-63.0578,77.0,78,40,11.5,AI,1612779892
195,Sotnikovskoye,45.0039,43.7772,25.81,97,100,10.56,RU,1612780017
196,Camacha,33.0833,-16.3333,62.6,82,40,16.11,PT,1612780017
197,Ilulissat,69.2167,-51.1,23.0,39,0,34.52,GL,1612780017
198,Hasaki,35.7333,140.8333,41.0,30,75,6.91,JP,1612780018
199,Haines Junction,60.7522,-137.5108,-16.6,76,100,2.3,CA,1612780018
200,Verkhnevilyuysk,63.4453,120.3167,-14.73,89,92,5.3,RU,1612780018
201,Tasiilaq,65.6145,-37.6368,19.4,53,40,5.75,GL,1612780019
202,Cap Malheureux,-19.9842,57.6142,86.0,65,0,7.0,MU,1612780019
203,Erice,38.037,12.5865,57.2,67,40,20.71,IT,1612780019
204,Cape Town,-33.9258,18.4232,79.0,53,20,19.57,ZA,1612779976
205,Kodinsk,58.6881,99.1844,20.64,94,12,4.92,RU,1612780019
206,Trairi,-3.2778,-39.2689,79.43,81,7,6.55,BR,1612780020
207,Werda,-25.2667,23.2833,81.63,49,0,7.4,BW,1612779728
208,Grand-Santi,4.25,-54.3833,71.78,96,100,2.35,GF,1612780020
209,Loano,44.133,8.2513,54.0,87,40,2.3,IT,1612780020
210,Tomigusuku,26.185,127.675,64.4,52,20,19.57,JP,1612779909
211,Morón,-34.6534,-58.6198,70.0,72,60,5.01,AR,1612780021
212,Narsaq,60.9167,-46.05,37.4,30,40,42.57,GL,1612780021
213,Naryan-Mar,67.6713,53.087,-13.79,87,100,19.33,RU,1612780021
214,Sumenep,-7.0167,113.8667,82.04,78,69,14.63,ID,1612780022
215,Saint Paul Harbor,57.79,-152.4072,26.6,80,1,3.44,US,1612780022
216,Kiryat Gat,31.61,34.7642,75.99,47,44,2.24,IL,1612780022
217,Port Lincoln,-34.7333,135.8667,64.85,70,27,14.34,AU,1612780022
218,Kiama,-34.6833,150.8667,68.0,87,84,1.99,AU,1612780022
219,San Cristobal,7.7669,-72.225,65.73,82,100,2.26,VE,1612780023
220,Pevek,69.7008,170.3133,-11.43,84,0,7.23,RU,1612780023
221,Anadyr,64.75,177.4833,12.2,85,90,24.61,RU,1612780023
222,Nicaea,40.4286,29.7211,69.8,23,75,16.11,TR,1612780020
223,Sirte,31.2089,16.5887,67.12,41,31,17.81,LY,1612780024
224,Weatherford,32.7593,-97.7972,48.99,89,0,3.0,US,1612780024
225,Hope,33.6671,-93.5916,37.99,75,34,4.0,US,1612780024
226,Mayor Pablo Lagerenza,-19.9309,-60.7718,65.43,56,75,2.19,PY,1612780025
227,Amalāpuram,16.5833,82.0167,87.8,48,20,8.05,IN,1612780025
228,Hong Kong,22.2855,114.1577,69.01,80,75,3.0,HK,1612779912
229,Constitución,-35.3333,-72.4167,55.98,92,4,4.47,CL,1612780026
230,Srandakan,-7.9386,110.2506,78.4,89,100,8.61,ID,1612780026
231,Buala,-8.145,159.5921,81.48,79,100,8.23,SB,1612780026
232,Catuday,16.2923,119.8062,80.02,77,24,7.9,PH,1612780027
233,Manduria,40.4018,17.6335,55.99,87,75,4.61,IT,1612780027
234,Krasnogorskiy,54.6025,61.231,-0.89,87,100,14.12,RU,1612780027
235,Hadejia,12.4498,10.0444,83.41,14,1,12.44,NG,1612780027
236,Krasnoslobodsk,48.7072,44.5714,15.8,53,0,13.42,RU,1612780027
237,Tautira,-17.7333,-149.15,77.0,78,0,2.3,PF,1612780028
238,Yertarskiy,56.7902,64.2995,-0.13,87,100,11.07,RU,1612780028
239,Jinan,36.6683,116.9972,50.0,25,99,2.28,CN,1612779905
240,Koubia,11.5833,-11.9,81.59,18,13,4.21,GN,1612780029
241,Caxito,-8.5785,13.6643,89.6,55,20,5.75,AO,1612779973
242,Ixtapa,20.7,-105.2,64.0,93,17,2.24,MX,1612779780
243,Port Hardy,50.6996,-127.4199,37.4,86,20,5.75,CA,1612780029
244,Husavik,66.0449,-17.3389,30.2,80,75,3.44,IS,1612780029
245,Barra Patuca,15.8,-84.2833,75.42,86,17,6.24,HN,1612780030
246,São Filipe,14.8961,-24.4956,69.06,74,94,11.3,CV,1612780030
247,Port Blair,11.6667,92.75,80.53,75,26,12.59,IN,1612780030
248,Vulcan,45.3833,23.2667,41.58,80,100,7.14,RO,1612780030
249,Point Pedro,9.8167,80.2333,79.86,64,0,18.03,LK,1612780030
250,Upernavik,72.7868,-56.1549,18.48,79,87,7.43,GL,1612780031
251,Savelugu,9.6244,-0.8253,92.98,22,0,3.4,GH,1612780031
252,St Helens,53.45,-2.7333,36.0,69,40,18.41,GB,1612780031
253,Ribeira Brava,32.65,-17.0667,66.2,68,20,2.3,PT,1612780031
254,Mala Vyska,48.6431,31.6366,19.44,97,100,18.43,UA,1612780032
255,Lahaina,20.8783,-156.6825,68.0,82,1,4.45,US,1612780032
256,Merritt Island,28.5392,-80.672,63.0,88,90,5.75,US,1612779816
257,George,-33.963,22.4617,73.4,60,20,10.36,ZA,1612780033
258,Sawtell,-30.3833,153.1,73.4,73,90,19.57,AU,1612780033
259,Nikolskoye,59.7035,30.7861,12.99,92,0,8.95,RU,1612780033
260,Ugra,54.7777,34.3267,10.81,94,44,3.42,RU,1612780033
261,Hatillo,18.4863,-66.8254,70.0,92,48,5.79,PR,1612780033
262,Bud,39.447,-86.1758,12.99,74,92,5.77,US,1612780034
263,Samarai,-10.6167,150.6667,83.64,79,100,8.12,PG,1612780034
264,Feni,23.0186,91.41,83.14,26,0,11.81,BD,1612780034
265,Takoradze,4.8845,-1.7554,84.63,75,30,8.14,GH,1612780034
266,Mahébourg,-20.4081,57.7,86.0,62,40,9.22,MU,1612780035
267,Marystown,47.1666,-55.1483,28.74,97,100,23.17,CA,1612780035
268,Paragominas,-2.9667,-47.4833,71.89,98,36,2.59,BR,1612780035
269,Bandarbeyla,9.4942,50.8122,79.68,64,55,21.12,SO,1612780035
270,Kiunga,-6.1219,141.2906,77.47,90,100,2.35,PG,1612780035
271,Gävle,60.6745,17.1417,21.45,97,100,11.16,SE,1612780036
272,Ambovombe,-25.1667,46.0833,90.05,53,19,8.05,MG,1612780036
273,Clyde River,70.4692,-68.5914,-4.0,84,1,21.85,CA,1612780036
274,Swan River,52.1058,-101.2676,-32.8,68,12,14.97,CA,1612780036
275,Burnie,-41.0667,145.9167,61.0,51,10,9.6,AU,1612780037
276,Brownsville,25.9018,-97.4975,66.2,82,1,9.22,US,1612780037
277,Adrar,20.5022,-10.0711,63.68,28,0,13.04,MR,1612780037
278,Pacific Grove,36.6177,-121.9166,46.4,93,75,3.53,US,1612779922
279,Souillac,-20.5167,57.5167,86.0,62,40,9.22,MU,1612780037
280,Hamilton,39.1834,-84.5333,17.01,67,40,5.75,US,1612780038
281,Fortuna,40.5982,-124.1573,46.0,93,90,2.71,US,1612780038
282,Shakawe,-18.3667,21.85,72.79,86,100,3.96,BW,1612780038
283,Sørland,67.667,12.6934,33.8,80,40,11.5,NO,1612780038
284,Cam Ranh,11.9214,109.1591,78.8,73,20,14.97,VN,1612780039
285,Rundu,-17.9333,19.7667,68.79,88,100,9.4,NA,1612780039
286,Tiznit Province,29.5833,-9.5,54.5,65,9,2.1,MA,1612780039
287,Koidu,8.4167,-10.8333,85.78,50,23,2.62,SL,1612780039
288,Paraná,-31.732,-60.5238,66.72,52,0,3.38,AR,1612780040
289,Olden,61.8364,6.8064,17.6,57,0,5.75,NO,1612780040
290,Meulaboh,4.1363,96.1285,84.83,71,67,6.42,ID,1612780040
291,Hualmay,-11.0964,-77.6139,70.21,78,100,4.72,PE,1612780040
292,Zhangye,38.9342,100.4517,41.86,48,73,3.74,CN,1612780040
293,Qaanaaq,77.484,-69.3632,21.24,84,100,5.3,GL,1612780041
294,Rionegro,6.1552,-75.3737,59.0,100,75,3.44,CO,1612780041
295,Moyale,3.5167,39.0584,86.47,31,96,14.09,KE,1612780041
296,Faya,18.3851,42.4509,51.8,76,75,6.91,SA,1612780041
297,Setermoen,68.861,18.3486,24.8,93,90,2.3,NO,1612780041
298,Lagoa,39.05,-27.9833,59.88,83,100,28.5,PT,1612780042
299,Sooke,48.3746,-123.7276,42.8,75,39,18.41,CA,1612779928
300,Saint-François,46.4154,3.9054,43.0,81,90,3.44,FR,1612780042
301,Katsuura,35.1333,140.3,44.01,32,69,1.99,JP,1612780042
302,Road Town,18.4167,-64.6167,77.0,84,12,14.0,VG,1612780042
303,Ndioum,16.5129,-14.6471,71.6,46,0,2.3,SN,1612780043
304,Sabha,27.0377,14.4283,69.78,22,91,13.38,LY,1612779930
305,Carutapera,-1.195,-46.02,77.22,89,53,4.61,BR,1612780043
306,Corinth,37.9407,22.9573,64.0,57,92,3.0,GR,1612780043
307,Kabalo,-6.05,26.9167,82.08,75,99,4.38,CD,1612780044
308,Kavaratti,10.5669,72.642,82.76,56,23,3.29,IN,1612780044
309,Deputatsky,69.3,139.9,-20.47,86,100,3.76,RU,1612780044
310,Yantal',56.8471,105.2542,24.48,96,98,5.41,RU,1612780045
311,Acajutla,13.5928,-89.8275,76.5,67,83,3.83,SV,1612779932
312,Kuril'sk,45.2333,147.8833,17.24,92,100,20.02,RU,1612780045
313,Gairo,39.8497,9.5047,53.6,47,40,16.11,IT,1612780045
314,Kilis,36.7161,37.115,59.0,63,75,2.3,TR,1612780045
315,Davila,18.4726,120.5763,86.0,58,75,10.36,PH,1612780045
316,Praia,14.9215,-23.5087,69.8,64,20,24.16,CV,1612780008
317,Sept-Îles,50.2001,-66.3821,19.4,73,100,3.44,CA,1612780046
318,Saint George,37.1041,-113.5841,39.2,33,1,1.03,US,1612780046
319,Toamasina,-18.1667,49.3833,86.0,74,40,10.36,MG,1612780046
320,Lena,43.1,-5.7333,50.0,85,48,4.0,ES,1612780046
321,Kabompo,-13.5927,24.2008,72.86,83,100,7.54,ZM,1612780047
322,Verkhnyaya Inta,65.9811,60.3094,-13.13,89,100,8.34,RU,1612780047
323,Havre-St-Pierre,50.2334,-63.5986,17.6,73,90,8.05,CA,1612780047
324,Beyneu,45.3167,55.2,25.45,71,87,15.03,KZ,1612780047
325,Lata,40.1629,-8.3327,57.99,81,55,3.0,PT,1612780047
326,Ilo,-17.6394,-71.3375,70.36,83,96,4.38,PE,1612780129
327,Mossamedes,-15.1961,12.1522,77.0,65,40,12.66,AO,1612780129
328,Hay River,60.8156,-115.7999,-38.2,67,100,8.05,CA,1612780129
329,Puerto Escondido,15.85,-97.0667,75.74,75,8,4.7,MX,1612780130
330,Asău,46.4333,26.4,34.0,100,90,6.91,RO,1612780130
331,Calvinia,-31.4707,19.776,84.2,17,0,5.75,ZA,1612780130
332,Anshun,26.25,105.9333,47.12,81,100,3.38,CN,1612780130
333,Mocuba,-16.8392,36.9856,91.45,63,60,1.03,MZ,1612780130
334,Conceição da Barra,-18.5933,-39.7322,74.01,95,100,5.64,BR,1612780131
335,São Paulo de Olivença,-3.3783,-68.8725,72.66,98,100,1.32,BR,1612780131
336,Campo Verde,-20.4167,-54.0667,69.8,73,0,6.91,BR,1612780131
337,San Felipe,10.3399,-68.7425,70.38,90,92,2.8,VE,1612780131
338,Touros,-5.1989,-35.4608,77.0,88,40,3.44,BR,1612780131
339,Coquimbo,-29.9533,-71.3436,55.4,88,0,2.3,CL,1612779869
340,Kudahuvadhoo,2.6708,72.8944,82.76,75,40,16.55,MV,1612780132
341,Rāzole,16.4833,81.8333,87.8,48,20,8.05,IN,1612780132
342,Balingasay,16.3573,119.8564,81.16,76,24,8.37,PH,1612780132
343,Half Moon Bay,37.4636,-122.4286,48.0,93,90,3.74,US,1612780133
344,Sambava,-14.2667,50.1667,83.32,75,53,8.75,MG,1612780133
345,Nānākuli,21.3906,-158.1547,66.0,72,1,4.54,US,1612780133
346,Krasnosel'kup,65.7,82.4667,-3.84,89,72,10.6,RU,1612780133
347,Sūrajgarh,28.3124,75.7347,79.57,19,0,7.96,IN,1612780133
348,Agadez,19.75,10.25,76.96,15,100,6.62,NE,1612780134
349,San Jose,37.3394,-121.895,48.99,71,1,3.44,US,1612780122
350,Khovu-Aksy,51.1333,93.6,11.68,90,74,6.44,RU,1612780134
351,Yashkul',46.1711,45.3435,24.21,91,100,3.02,RU,1612780134
352,Leh,34.1667,77.5833,27.88,74,95,1.28,IN,1612780135
353,Poronaysk,49.2167,143.1167,9.5,92,100,6.85,RU,1612780135
354,Songjianghe,42.1859,127.479,3.2,92,99,4.97,CN,1612780135
355,Tokat,40.4167,36.5833,62.6,36,75,2.3,TR,1612780135
356,Ajdovščina,45.886,13.9095,45.0,83,100,1.01,SI,1612780135
357,Rzhanitsa,53.4284,33.923,6.8,72,0,2.24,RU,1612780136
358,Vostok,46.4856,135.8833,-10.68,90,100,5.88,RU,1612780136
359,Valparaíso,-33.0393,-71.6273,51.8,93,0,4.61,CL,1612780136
360,Jacobina,-11.1806,-40.5183,71.28,89,100,4.7,BR,1612780136
361,Yanam,16.7333,82.2167,87.8,48,20,8.05,IN,1612780136
362,Nouadhibou,20.931,-17.0347,64.4,63,0,20.71,MR,1612780137
363,Boguchany,58.3814,97.4531,22.08,95,48,4.41,RU,1612780137
364,Sungai Petani,5.647,100.4877,87.8,66,20,9.22,MY,1612780138
365,Kavieng,-2.5744,150.7967,83.88,72,93,5.66,PG,1612780138
366,Barkhan,29.8977,69.5256,72.93,18,41,7.18,PK,1612780138
367,Villazón,-22.0866,-65.5942,47.98,89,74,6.02,BO,1612780138
368,Ust-Tsilma,65.441,52.1498,-14.39,86,100,10.65,RU,1612780138
369,Kokoda,-8.8785,147.7407,76.89,69,100,1.1,PG,1612780139
370,Mpulungu,-8.7623,31.1141,78.73,67,93,1.92,ZM,1612780139
371,Launceston,-41.45,147.1667,60.01,51,40,12.66,AU,1612780139
372,Pasni,25.2631,63.471,72.34,42,1,12.64,PK,1612780139
373,Barra da Estiva,-13.6261,-41.3269,65.05,100,100,3.31,BR,1612780139
374,Taoudenni,22.6783,-3.9836,68.36,24,0,9.35,ML,1612780140
375,Koceljeva,44.4736,19.8117,51.8,71,75,9.22,RS,1612780140
376,Nambour,-26.6333,152.95,78.01,84,5,1.99,AU,1612779872
377,Flinders,-34.5833,150.8552,68.0,86,89,1.01,AU,1612780017
378,Jaciara,-15.9653,-54.9683,67.44,73,52,0.47,BR,1612780140
379,Ābādān,30.3392,48.3043,69.8,60,0,11.5,IR,1612780141
380,Bestöbe,52.4994,73.0975,16.11,91,70,24.0,KZ,1612780141
381,Barreirinhas,-2.7469,-42.8264,77.68,89,69,4.88,BR,1612780141
382,Camaná,-16.6228,-72.7111,70.57,83,98,4.0,PE,1612780141
383,Saint-Pierre,-21.3393,55.4781,89.6,51,75,12.66,RE,1612780141
384,Helena,46.5927,-112.0361,7.0,77,40,4.09,US,1612780142
385,Dudinka,69.4058,86.1778,-17.63,88,96,8.72,RU,1612780142
386,Pangnirtung,66.1451,-65.7125,17.49,75,0,4.23,CA,1612780142
387,Nantucket,41.2835,-70.0995,26.6,74,1,21.85,US,1612780142
388,Pinega,64.7001,43.3936,-15.92,87,14,5.08,RU,1612780143
389,Canoinhas,-26.1772,-50.39,54.37,88,0,0.67,BR,1612780143
390,Zapotiltic,19.6167,-103.4333,54.82,53,0,2.57,MX,1612780143
391,Nanortalik,60.1432,-45.2371,28.81,89,100,12.17,GL,1612780144
392,Seaforth,17.9358,-76.4573,78.8,73,75,10.36,JM,1612780144
393,Calama,-22.4667,-68.9333,50.0,76,0,14.97,CL,1612780144
394,Ostrołęka,53.0862,21.5757,15.01,67,100,11.99,PL,1612780144
395,Kralendijk,12.15,-68.2667,78.8,69,20,14.97,BQ,1612780048
396,Sobolevo,54.4299,31.8996,8.85,94,22,4.12,RU,1612780145
397,Aklavik,68.2191,-135.0107,-31.0,68,100,5.75,CA,1612780145
398,Vila,42.0304,-8.1588,46.0,95,100,18.01,PT,1612780145
399,Itaquitinga,-7.6678,-35.1017,80.6,69,40,6.91,BR,1612780145
400,Kristiansund,63.1115,7.732,24.8,54,20,3.44,NO,1612780145
401,Yatou,37.15,122.3833,30.67,88,12,10.0,CN,1612780146
402,Nangomba,-10.9,38.5,86.92,62,62,4.94,TZ,1612780146
403,Bariloche,-41.1456,-71.3082,57.2,62,90,5.75,AR,1612780033
404,Porto-Novo,6.4965,2.6036,86.0,74,40,11.5,BJ,1612780146
405,Fairbanks,64.8378,-147.7164,-27.4,67,1,3.67,US,1612780065
406,Bethel,41.3712,-73.414,16.0,53,1,4.61,US,1612780147
407,Vicuña,-30.0319,-70.7081,55.4,88,0,2.3,CL,1612780147
408,Abū Zabad,12.35,29.25,83.91,15,10,17.56,SD,1612780147
409,Yar-Sale,66.8333,70.8333,-7.04,90,100,7.87,RU,1612780147
410,Hofn,64.2539,-15.2082,35.6,75,90,9.22,IS,1612780147
411,Makakilo City,21.3469,-158.0858,66.2,72,1,4.83,US,1612780080
412,Port Macquarie,-31.4333,152.9167,69.01,84,15,10.42,AU,1612780148
413,Rapu-Rapu,13.1866,124.1256,77.41,88,100,18.3,PH,1612780148
414,Metapán,14.3333,-89.45,66.42,85,90,4.38,SV,1612780148
415,Bayir,37.2687,28.2167,68.0,55,75,17.27,TR,1612780148
416,North Platte,41.1239,-100.7654,-14.8,76,20,3.44,US,1612780149
417,Padang,-0.9492,100.3543,87.8,62,40,4.61,ID,1612779943
418,Guarapari,-20.6667,-40.4975,69.8,94,90,2.3,BR,1612780149
419,Mahanoro,-19.9,48.8,87.35,63,73,13.8,MG,1612780149
420,Itamaracá,-7.7478,-34.8256,80.6,69,40,6.91,BR,1612780149
421,Uglekamensk,43.2172,133.2303,2.86,89,27,3.58,RU,1612780150
422,Salé,34.0389,-6.8166,61.0,77,75,18.41,MA,1612780150
423,North Bend,43.4065,-124.2243,39.99,93,90,4.61,US,1612780150
424,Khani,41.9563,42.9566,66.2,42,0,13.8,GE,1612780150
425,Taitung City,22.7583,121.1444,68.0,88,75,13.8,TW,1612780150
426,Mount Gambier,-37.8333,140.7667,57.2,77,45,12.66,AU,1612780150
427,Cockburn Town,21.4612,-71.1419,77.07,80,25,18.77,TC,1612780151
428,Vardø,70.3705,31.1107,23.0,74,40,19.57,NO,1612780151
429,Līsakovsk,52.5369,62.4936,-3.26,86,88,21.07,KZ,1612780151
430,Nur-Sultan,51.1801,71.446,10.4,79,75,26.84,KZ,1612780144
431,Karratha,-20.7377,116.8463,82.67,62,2,16.82,AU,1612780151
432,Bogotol,56.2078,89.5342,27.28,96,80,10.89,RU,1612780152
433,Lusambo,-4.9667,23.45,90.43,44,98,3.98,CD,1612780152
434,Beringovskiy,63.05,179.3167,3.27,94,100,9.53,RU,1612780152
435,Makkah al Mukarramah,21.4267,39.8261,85.3,16,0,10.6,SA,1612779968
436,Katobu,-4.9408,122.5276,81.0,79,89,5.68,ID,1612780152
437,Umm Bāb,25.2142,50.8072,78.01,41,40,13.8,QA,1612780153
438,Aswān,24.0934,32.907,83.16,17,0,14.99,EG,1612780153
439,Baykit,61.67,96.37,12.4,92,98,5.55,RU,1612780153
440,Alofi,-19.0595,-169.9187,77.0,100,75,3.44,NU,1612780153
441,Ahipara,-35.1667,173.1667,63.1,87,96,6.8,NZ,1612780153
442,Salinas,36.6777,-121.6555,46.4,93,1,2.1,US,1612780154
443,Northampton,40.8754,-75.2499,12.0,80,5,3.98,US,1612780154
444,Zabaykal'sk,49.6333,117.3167,1.89,90,1,5.21,RU,1612780154
445,Khovd,48.0056,91.6419,21.63,79,79,2.68,MN,1612780154
446,Gemeente Woerden,52.0833,4.8833,24.01,88,100,11.01,NL,1612780154
447,Grong,64.4654,12.3149,3.2,85,40,16.11,NO,1612780155
448,Salalah,17.0151,54.0924,80.6,54,0,13.8,OM,1612780017
449,Sālūr,18.5333,83.2167,87.78,15,72,4.99,IN,1612780155
450,Tarko-Sale,64.9225,77.785,-1.16,93,48,9.89,RU,1612780155
451,Almaznyy,48.0448,40.045,17.6,86,75,8.95,RU,1612780155
452,Capreol,46.706,-80.9225,-4.0,77,90,5.75,CA,1612780156
453,Neuquén,-38.9516,-68.0591,60.8,63,0,11.5,AR,1612780041
454,Tefé,-3.3542,-64.7114,72.23,97,93,1.41,BR,1612780156
455,Niksar,40.5917,36.9517,62.6,36,75,2.3,TR,1612780156
456,Shawnee,39.05,-95.7669,8.01,78,90,6.91,US,1612780157
457,Acapulco de Juárez,16.8634,-99.8901,73.08,83,1,3.29,MX,1612780117
458,Ugoofaaru,5.6667,73.0,81.97,73,22,13.11,MV,1612780157
459,Benguela,-12.5763,13.4055,81.84,63,97,8.86,AO,1612780157
460,Srednekolymsk,67.45,153.6833,1.09,83,77,11.14,RU,1612780157
461,Conakry,9.538,-13.6773,82.4,74,0,6.91,GN,1612779877
462,Mēga,4.05,38.3,77.83,33,98,15.82,ET,1612780158
463,Qasigiannguit,68.8193,-51.1922,23.0,39,0,34.52,GL,1612780158
464,Lavrentiya,65.5833,-171.0,-5.15,85,90,14.56,RU,1612780159
465,Omsukchan,62.5333,155.8,0.45,88,93,4.52,RU,1612780159
466,Sechura,-5.5569,-80.8222,73.72,71,97,12.1,PE,1612780159
467,Olafsvik,64.8945,-23.7142,35.46,80,85,14.61,IS,1612780159
468,Umba,66.6871,34.3429,15.64,93,27,9.86,RU,1612780160
469,Sanjwal,33.7608,72.4336,72.0,33,73,4.0,PK,1612780160
470,Ukiah,39.1502,-123.2078,42.01,87,1,0.94,US,1612780160
471,Mehamn,71.0357,27.8492,24.8,63,40,24.16,NO,1612780161
472,New Waterford,40.8451,-80.6145,9.0,60,92,1.5,US,1612780161
473,Marabba,12.35,32.1833,86.79,16,49,11.36,SD,1612780161
474,Ust-Nera,64.5667,143.2,-8.88,79,99,8.68,RU,1612780162
475,Kitob,39.0843,66.8332,55.4,58,75,13.8,UZ,1612780162
476,Ilhabela,-23.7781,-45.3581,72.39,79,76,1.99,BR,1612780152
477,Manaure,11.7751,-72.4445,75.69,80,80,13.56,CO,1612780162
478,Rafrāf,37.1904,10.1837,60.8,72,40,13.8,TN,1612780163
479,Irtyshskiy,58.3333,68.1333,-1.84,87,36,7.72,RU,1612780164
480,Sibu,2.3,111.8167,82.4,83,40,6.91,MY,1612780164
481,Saldanha,-33.0117,17.9442,80.6,47,0,18.41,ZA,1612780165
482,Sārangarh,21.6,83.0833,83.66,15,0,5.5,IN,1612780165
483,Matamoros,25.5333,-103.25,55.0,32,100,1.7,MX,1612780166
484,Kropotkin,45.4375,40.5756,27.39,98,100,12.35,RU,1612780167
485,Hergla,36.0303,10.509,64.4,42,0,11.5,TN,1612780167
486,Luau,-10.7073,22.2247,71.6,87,95,7.56,AO,1612780167
487,San Patricio,28.017,-97.5169,57.2,94,90,9.22,US,1612780168
488,Batagay,67.6333,134.6333,-30.1,83,75,2.33,RU,1612780168
489,Udangudi,8.4333,78.0167,89.6,43,20,11.5,IN,1612780169
490,Ratnagiri,16.9833,73.3,89.06,27,21,9.6,IN,1612780169
491,Lensk,60.7253,114.9278,16.75,95,100,1.7,RU,1612780169
492,Lodja,-3.4833,23.4333,92.48,36,98,4.23,CD,1612780169
493,São Miguel do Araguaia,-13.275,-50.1628,68.95,99,95,3.91,BR,1612780170
494,Cabedelo,-6.9811,-34.8339,78.8,89,20,9.35,BR,1612780104
495,Matagami,49.7502,-77.6328,-23.8,76,1,3.44,CA,1612780170
496,Alépé,5.5004,-3.6631,84.2,84,75,10.36,CI,1612780171
497,Vysokogornyy,50.1167,139.15,-9.02,88,100,6.8,RU,1612780171
498,Esim,4.8699,-2.2405,84.13,76,54,8.46,GH,1612780171
499,Östersund,63.1792,14.6357,15.8,86,20,3.44,SE,1612780172
500,Tahlequah,35.9154,-94.97,36.0,93,90,8.05,US,1612780172
501,Mnogovershinnyy,53.9353,139.9242,-1.62,93,100,9.42,RU,1612780172
502,Passage West,51.8739,-8.3444,35.01,75,90,18.41,IE,1612780172
503,Gariāband,20.635,82.0614,82.4,30,9,5.75,IN,1612780173
504,Batagay-Alyta,67.8006,130.4114,-19.64,78,75,0.54,RU,1612780173
505,Oktyabr'skoye,43.0645,44.7417,30.2,86,90,6.71,RU,1612780173
506,Kenai,60.5544,-151.2583,5.0,78,1,4.61,US,1612780173
507,Nouakchott,18.0858,-15.9785,64.4,32,100,13.8,MR,1612779960
508,Nsanje,-16.92,35.262,93.2,51,79,4.41,MW,1612780174
509,Włodawa,51.55,23.55,14.0,89,100,21.43,PL,1612780174
510,Fushun,41.8558,123.9233,21.2,35,0,2.24,CN,1612780174
511,Karlskrona,56.1616,15.5866,26.6,74,75,12.66,SE,1612780174
512,San Quintín,30.4833,-115.95,54.91,85,8,2.17,MX,1612780174
513,Severo-Yeniseyskiy,60.3725,93.0408,11.68,94,100,8.61,RU,1612780175
514,Tateyama,34.9833,139.8667,44.01,32,5,1.99,JP,1612780175
515,Atbasar,51.8,68.3333,-2.33,89,100,21.0,KZ,1612780175
516,Sosnovo-Ozerskoye,52.5249,111.5418,8.04,94,9,8.77,RU,1612780175
517,Leshukonskoye,64.8989,45.7622,-17.46,87,38,6.82,RU,1612780176
518,Saint-Louis,16.3333,-15.0,71.6,46,0,2.3,SN,1612780176
519,Oriximiná,-1.7656,-55.8661,74.62,91,100,3.53,BR,1612780176
520,Bacolod City,10.6667,122.95,75.49,86,100,11.12,PH,1612780075
521,Ust'-Barguzin,53.45,108.9833,14.52,93,96,1.68,RU,1612780176
522,Liverpool,53.4106,-2.9779,35.6,69,40,18.41,GB,1612780157
523,Shitanjing,39.2342,106.3439,32.0,79,0,2.04,CN,1612780177
524,Linhai,28.85,121.1167,48.99,69,100,4.38,CN,1612780177
525,Mayo,38.8876,-76.5119,28.4,50,75,6.91,US,1612780177
526,Guane,22.2025,-84.0875,72.12,91,1,4.97,CU,1612780177
527,Chapais,49.7834,-74.8492,-14.8,84,1,2.3,CA,1612779911
528,Chicama,-7.8447,-79.1469,71.1,69,76,4.45,PE,1612780178
529,San Miguel de Tucumán,-26.8241,-65.2226,69.8,83,0,3.18,AR,1612780046
530,São Francisco de Paula,-29.4481,-50.5836,64.99,87,0,3.8,BR,1612780178
531,Bichena,10.45,38.2,73.76,21,100,14.23,ET,1612780178
532,Tynda,55.1667,124.7167,-13.5,85,100,3.69,RU,1612780179
533,Ushtobe,45.2514,77.9838,41.68,94,100,15.46,KZ,1612780179
534,Kerchevskiy,59.946,56.2884,-15.12,87,100,8.93,RU,1612780179
535,Nageshwari,25.9377,89.7148,82.63,23,0,5.12,BD,1612780179
536,Batouri,4.4333,14.3667,93.07,12,64,5.12,CM,1612780179
537,Lexington,37.9887,-84.4777,19.0,67,1,8.05,US,1612780179
538,Umm Kaddadah,13.6017,26.6876,79.56,16,7,17.96,SD,1612780180
539,Rūdbār,30.15,62.6,77.9,16,11,9.31,AF,1612780180
540,Seybaplaya,19.65,-90.6667,69.55,96,11,6.64,MX,1612780180
541,Namatanai,-3.6667,152.4333,81.77,80,99,5.79,PG,1612780180
542,Wilkes-Barre,41.2459,-75.8813,7.0,82,0,3.56,US,1612780053
543,Amahai,-3.3333,128.9167,82.47,78,98,4.32,ID,1612780181
544,Hervey Bay,-25.2986,152.8535,78.01,75,3,5.01,AU,1612780181
545,Podporozh'ye,60.9112,34.1706,5.7,91,43,8.1,RU,1612780181
546,Imeni Stepana Razina,54.8932,44.2963,-6.56,87,39,12.33,RU,1612780181
547,Whitehorse,60.7161,-135.0538,-11.0,77,75,4.61,CA,1612780181
548,Guerrero Negro,27.9769,-114.0611,56.39,87,0,5.32,MX,1612780182
549,Morro Bay,35.3658,-120.8499,51.01,95,0,1.99,US,1612780182
550,Antofagasta,-23.65,-70.4,62.6,88,20,2.3,CL,1612779919
551,Wagar,16.1525,36.2032,84.11,25,0,4.0,SD,1612780182
552,Strezhevoy,60.7333,77.5889,6.8,66,0,8.95,RU,1612780182
553,Viedma,-40.8135,-62.9967,53.01,84,41,4.9,AR,1612780183
554,Kondinskoye,59.6481,67.41,-6.84,90,100,7.02,RU,1612780183
555,Warangal,18.0,79.5833,87.13,19,15,2.15,IN,1612780183
556,Kattivākkam,13.2167,80.3167,86.0,35,20,12.66,IN,1612780183
557,Riyadh,24.6877,46.7219,64.4,45,0,10.36,SA,1612779944
558,Taunggyi,20.7833,97.0333,66.02,36,39,10.87,MM,1612780184
559,Grootfontein,-19.5667,18.1167,64.4,94,75,9.22,NA,1612780184
560,Wanning,18.8003,110.3967,71.49,85,100,11.45,CN,1612780184
561,Alnashi,56.1874,52.4792,-13.47,86,100,15.21,RU,1612780184
562,Swellendam,-34.0226,20.4417,82.4,39,0,3.44,ZA,1612780184
563,Muros,42.7762,-9.0603,54.0,89,69,3.0,ES,1612780185
564,Atar,20.5169,-13.0499,57.2,23,0,2.3,MR,1612780185
565,Begoro,6.3871,-0.3774,85.33,61,57,3.0,GH,1612780185
566,Ouésso,1.6136,16.0517,94.35,38,81,3.69,CG,1612780185
567,Virginia Beach,36.8529,-75.978,34.0,55,1,5.75,US,1612780054
568,Mayumba,-3.432,10.6554,81.36,78,86,1.86,GA,1612780186
569,Ghugus,19.9333,79.1333,88.27,12,23,1.97,IN,1612780186
570,Morant Bay,17.8815,-76.4093,78.8,73,75,10.36,JM,1612780186
571,Kamaishi,39.2667,141.8833,23.0,54,20,12.66,JP,1612780186
572,Balyqshy,47.0667,51.8667,14.0,48,0,11.18,KZ,1612780186
573,Micheweni,-4.9667,39.8333,83.48,72,100,14.94,TZ,1612780187
